[
	{
		"id": "60bf55cb-0945-46a5-b3d6-d54ddf47e309",
		"volume": 3,
		"weight": 5,
		"destination": {
			"number": "24",
			"street": "Via Bianzana",
			"town": "Bergamo",
			"province": "BG",
			"coordinates": {
				"lat": 45.705811,
				"lng": 9.689833,
				"confidence": 9
			}
		}
	},
	{
		"id": "7073c7f4-8415-4b0e-9260-56a07d13625a",
		"volume": 1,
		"weight": 2,
		"destination": {
			"number": "60",
			"street": "Via Giulio Crescenzi",
			"town": "Bergamo",
			"province": "BG",
			"coordinates": {
				"lat": 45.709559,
				"lng": 9.676888,
				"confidence": 9
			}
		}
	},
	{
		"id": "812b6c3d-2b55-4432-a648-fde0199035c1",
		"volume": 6,
		"weight": 6,
		"destination": {
			"number": "39",
			"street": "Via Francesco Nullo",
			"town": "Bergamo",
			"province": "BG",
			"coordinates": {
				"lat": 45.697727,
				"lng": 9.661007,
				"confidence": 9
			}
		}
	},
	{
		"id": "4a7818ea-86d6-4a9c-9016-43f7f462b53e",
		"volume": 2,
		"weight": 1,
		"destination": {
			"number": "90",
			"street": "Via Broseta",
			"town": "Bergamo",
			"province": "BG",
			"coordinates": {
				"lat": 45.693499,
				"lng": 9.651159,
				"confidence": 9
			}
		}
	},
	{
		"id": "38ef9ff2-6be9-4bd6-ad97-57d40b2795a7",
		"volume": 1,
		"weight": 3,
		"destination": {
			"number": "6b",
			"street": "Via Giuseppe Greppi",
			"town": "Bergamo",
			"province": "BG",
			"coordinates": {
				"lat": 45.689926,
				"lng": 9.664701,
				"confidence": 9
			}
		}
	},
	{
		"id": "198b53af-085a-4932-abb7-cba23f0a5045",
		"volume": 3,
		"weight": 6,
		"destination": {
			"number": "47",
			"street": "Via Andrea Previtali",
			"town": "Bergamo",
			"province": "BG",
			"coordinates": {
				"lat": 45.689066,
				"lng": 9.661424,
				"confidence": 9
			}
		}
	},
	{
		"id": "292e2b6c-1007-47b1-bcba-642201b1d0ae",
		"volume": 4,
		"weight": 2,
		"destination": {
			"number": "12",
			"street": "Via Enrico Scuri",
			"town": "Bergamo",
			"province": "BG",
			"coordinates": {
				"lat": 45.690845,
				"lng": 9.658827,
				"confidence": 9
			}
		}
	},
	{
		"id": "d160a852-c2c2-40c4-b940-a465ec365313",
		"volume": 5,
		"weight": 5,
		"destination": {
			"number": "6",
			"street": "Via N. Castellini",
			"town": "Bergamo",
			"province": "BG",
			"coordinates": {
				"lat": 45.707326,
				"lng": 9.682426,
				"confidence": 9
			}
		}
	},
	{
		"id": "f572989f-f00f-405f-9d6c-448fd829636e",
		"volume": 2,
		"weight": 4,
		"destination": {
			"number": "1",
			"street": "Via Cristoforo Colombo",
			"town": "Orio al Serio",
			"province": "BG",
			"coordinates": {
				"lat": 45.674526,
				"lng": 9.689513,
				"confidence": 9
			}
		}
	},
	{
		"id": "628a435e-6049-4783-8408-7d3a7d6ace06",
		"volume": 3,
		"weight": 2,
		"destination": {
			"number": "22",
			"street": "Via S. Domenico Savio",
			"town": "Bergamo",
			"province": "BG",
			"coordinates": {
				"lat": 45.67877,
				"lng": 9.67845,
				"confidence": 9
			}
		}
	},
	{
		"id": "955cdf61-9b25-4883-b89c-c2fcbd037ddb",
		"volume": 5,
		"weight": 2,
		"destination": {
			"number": "8",
			"street": "Via Monte Ortigara",
			"town": "Bergamo",
			"province": "BG",
			"coordinates": {
				"lat": 45.699999,
				"lng": 9.66947,
				"confidence": 9
			}
		}
	},

	{
		"id": "ecd92ab3-2214-427d-998e-bebdf65637cd",
		"volume": 3,
		"weight": 5,
		"destination": {
			"number": "74",
			"street": "Via S. Bernardino",
			"town": "Bergamo",
			"province": "BG",
			"coordinates": {
				"lat": 45.687389,
				"lng": 9.663151,
				"confidence": 9
			}
		}

	},
	{
		"id": "47f44a7a-9c74-4060-97ab-83206e40ed07",
		"volume": 4,
		"weight": 1,
		"destination": {
			"number": "11a",
			"street": "Via Borfuro",
			"town": "Bergamo",
			"province": "BG",
			"coordinates": {
				"lat": 45.695268,
				"lng": 9.666608,
				"confidence": 9
			}
		}
	},
	{
		"id": "0170c78c-6f01-413b-9f6e-fe21361e4a04",
		"volume": 9,
		"weight": 4,
		"destination": {
			"number": "6",
			"street": "Piazza della Libertà",
			"town": "Bergamo",
			"province": "BG",
			"coordinates": {
				"lat": 45.696882,
				"lng": 9.668549,
				"confidence": 9
			}
		}
	},
	{
		"id": "6b1369f5-ae96-49ce-8be7-e88617f63a2e",
		"volume": 6,
		"weight": 7,
		"destination": {
			"number": "11",
			"street": "Via Zambonate",
			"town": "Bergamo",
			"province": "BG",
			"coordinates": {
				"lat": 45.692888,
				"lng": 9.667182,
				"confidence": 9
			}
		}
	},
	{
		"id": "c6e943c4-9dbf-4a9c-ae02-ef8c1c0e3ae5",
		"volume": 2,
		"weight": 1,
		"destination": {
			"number": "58h",
			"street": "Via Zanica",
			"town": "Bergamo",
			"province": "BG",
			"coordinates": {
				"lat": 45.679568,
				"lng": 9.672860,
				"confidence": 9
			}
		}
	},
	{
		"id": "3efe353d-41ab-43b9-b6b0-ded316b9c434",
		"volume": 3,
		"weight": 4,
		"destination": {
			"number": "1",
			"street": "Via Angelo Maj",
			"town": "Bergamo",
			"province": "BG",
			"coordinates": {
				"lat": 45.693896,
				"lng": 9.677617,
				"confidence": 9
			}
		}
	},
	{
		"id": "5838a3e4-e3e5-497a-9d94-14f309526129",
		"volume": 7,
		"weight": 2,
		"destination": {
			"number": "87",
			"street": "Via Zanica",
			"town": "Bergamo",
			"province": "BG",
			"coordinates": {
				"lat": 45.676938,
				"lng": 9.678279,
				"confidence": 9
			}
		}
	},
	{
		"id": "5bbb70d1-20a5-4167-bb35-19839a448151",
		"volume": 1,
		"weight": 6,
		"destination": {
			"number": "4",
			"street": "Via Pinamonte da Brembate",
			"town": "Bergamo",
			"province": "BG",
			"coordinates": {
				"lat": 45.694977,
				"lng": 9.683084,
				"confidence": 9
			}
		}
	},
	{
		"id": "39688ae6-77f8-4366-86cc-276dde2756d3",
		"volume": 2,
		"weight": 2,
		"destination": {
			"number": "21a",
			"street": "Via Alberico da Rosciate",
			"town": "Bergamo",
			"province": "BG",
			"coordinates": {
				"lat": 45.704196,
				"lng": 9.680838,
				"confidence": 9
			}
		}
	},
	{
		"id": "4fb164b7-5ccc-4ba5-90ea-a94acfa76dfe",
		"volume": 5,
		"weight": 6,
		"destination": {
			"number": "5",
			"street": "Piazza Duomo",
			"town": "Bergamo",
			"province": "BG",
			"coordinates": {
				"lat": 45.703968,
				"lng": 9.664067,
				"confidence": 9
			}
		}
	}
]