[{ 
	"id": "60bf55cb-0945-46a5-b3d6-d54ddf47e309",
	"volume": 3,
	"weight": 5,
	"destination":{
		"number": "24",
		"street": "Via Bianzana",
		"town": "Bergamo",
		"province": "BG",
		"coordinates":{
			"lat": 45.705811, 
			"lng": 9.689833,
			"confidence": 9
		}
	}
},
{ 
	"id": "7073c7f4-8415-4b0e-9260-56a07d13625a",
	"volume": 1,
	"weight": 2,
	"destination":{
		"number": "60",
		"street": "Via Giulio Crescenzi",
		"town": "Bergamo",
		"province": "BG",
		"coordinates":{
			"lat": 45.709559, 
			"lng": 9.676888,
			"confidence": 9
		}
	}
},
{ 
	"id": "812b6c3d-2b55-4432-a648-fde0199035c1",
	"volume": 6,
	"weight": 6,
	"destination":{
		"number": "39",
		"street": "Via Francesco Nullo",
		"town": "Bergamo",
		"province": "BG",
		"coordinates":{
			"lat": 45.697727, 
			"lng": 9.661007,
			"confidence": 9
		}
	}
},
{ 
	"id": "4a7818ea-86d6-4a9c-9016-43f7f462b53e",
	"volume": 2,
	"weight": 1,
	"destination":{
		"number": "90",
		"street": "Via Broseta",
		"town": "Bergamo",
		"province": "BG",
		"coordinates":{
			"lat": 45.693499, 
			"lng": 9.651159,
			"confidence": 9
		}
	}
},
{ 
	"id": "38ef9ff2-6be9-4bd6-ad97-57d40b2795a7",
	"volume": 1,
	"weight": 3,
	"destination":{
		"number": "6b",
		"street": "Via Giuseppe Greppi",
		"town": "Bergamo",
		"province": "BG",
		"coordinates":{
			"lat": 45.689926, 
			"lng": 9.664701,
			"confidence": 9
		}
	}
},
{ 
	"id": "198b53af-085a-4932-abb7-cba23f0a5045",
	"volume": 3,
	"weight": 6,
	"destination":{
		"number": "47",
		"street": "Via Andrea Previtali",
		"town": "Bergamo",
		"province": "BG",
		"coordinates":{
			"lat": 45.689066, 
			"lng": 9.661424,
			"confidence": 9
		}
	}
},
{ 
	"id": "292e2b6c-1007-47b1-bcba-642201b1d0ae",
	"volume": 4,
	"weight": 2,
	"destination":{
		"number": "12",
		"street": "Via Enrico Scuri",
		"town": "Bergamo",
		"province": "BG",
		"coordinates":{
			"lat": 45.690845, 
			"lng": 9.658827,
			"confidence": 9
		}
	}
},
{ 
	"id": "d160a852-c2c2-40c4-b940-a465ec365313",
	"volume": 5,
	"weight": 5,
	"destination":{
		"number": "6",
		"street": "Via N. Castellini",
		"town": "Bergamo",
		"province": "BG",
		"coordinates":{
			"lat": 45.707326, 
			"lng": 9.682426,
			"confidence": 9
		}
	}
},
{ 
	"id": "f572989f-f00f-405f-9d6c-448fd829636e",
	"volume": 2,
	"weight": 4,
	"destination":{
		"number": "1",
		"street": "Via Cristoforo Colombo",
		"town": "Orio al Serio",
		"province": "BG",
		"coordinates":{
			"lat": 45.674526, 
			"lng": 9.689513,
			"confidence": 9
		}
	}
},
{ 
	"id": "628a435e-6049-4783-8408-7d3a7d6ace06",
	"volume": 3,
	"weight": 2,
	"destination":{
		"number": "22",
		"street": "Via S. Domenico Savio",
		"town": "Bergamo",
		"province": "BG",
		"coordinates":{
			"lat": 45.67877, 
			"lng": 9.67845,
			"confidence": 9
		}
	}
},
{ 
	"id": "955cdf61-9b25-4883-b89c-c2fcbd037ddb",
	"volume": 5,
	"weight": 2,
	"destination":{
		"number": "8",
		"street": "Via Monte Ortigara",
		"town": "Bergamo",
		"province": "BG",
		"coordinates":{
			"lat": 45.699999, 
			"lng": 9.66947,
			"confidence": 9
		}
	}
},
]