[{ 
	"id": "AAAA",
	"volume": 3,
	"weight": 5,
	"destination":{
		"number": "32",
		"street": "Via Giacomo Manz√π",
		"town": "Terno d'Isola",
		"province": "BG",
		"coordinates":{
			"lat": 45.68299, 
			"lng": 9.53841,
			"confidence": 9
		}
	}
},
{ 
	"id": "AAAB",
	"volume": 1,
	"weight": 2,
	"destination":{
		"number": "3c",
		"street": "Via Largo del Roccolo",
		"town": "Terno d'Isola",
		"province": "BG",
		"coordinates":{
			"lat": 45.68834, 
			"lng": 9.524232,
			"confidence": 9
		}
	}
},
{ 
	"id": "AAAC",
	"volume": 6,
	"weight": 6,
	"destination":{
		"number": "7",
		"street": "Via G. B. Vico",
		"town": "Mozzo",
		"province": "BG",
		"coordinates":{
			"lat": 45.69673, 
			"lng": 9.62082,
			"confidence": 9
		}
	}
},
{ 
	"id": "AAAD",
	"volume": 2,
	"weight": 1,
	"destination":{
		"number": "90",
		"street": "Via Broseta",
		"town": "Bergamo",
		"province": "BG",
		"coordinates":{
			"lat": 45.693499, 
			"lng": 9.651159,
			"confidence": 9
		}
	}
},
{ 
	"id": "AAAE",
	"volume": 4,
	"weight": 4,
	"destination":{
		"number": "29",
		"street": "Via Ugo Foscolo",
		"town": "Brembate di sopra",
		"province": "BG",
		"coordinates":{
			"lat": 45.721106, 
			"lng": 9.576754,
			"confidence": 9
		}
	}
},
{ 
	"id": "AAAF",
	"volume": 1,
	"weight": 3,
	"destination":{
		"number": "10",
		"street": "Via Isonzo",
		"town": "Stezzano",
		"province": "BG",
		"coordinates":{
			"lat": 45.649249, 
			"lng": 9.649197,
			"confidence": 9
		}
	}
},
{ 
	"id": "AAAG",
	"volume": 4,
	"weight": 6,
	"destination":{
		"number": "3",
		"street": "Via Risorgimento",
		"town": "Madone",
		"province": "BG",
		"coordinates":{
			"lat": 45.647250, 
			"lng": 9.548957,
			"confidence": 9
		}
	}
},
{ 
	"id": "AAAH",
	"volume": 3,
	"weight": 6,
	"destination":{
		"number": "47",
		"street": "Via Andrea Previtali",
		"town": "Bergamo",
		"province": "BG",
		"coordinates":{
			"lat": 45.689066, 
			"lng": 9.661424,
			"confidence": 9
		}
	}
},
{ 
	"id": "AAAI",
	"volume": 4,
	"weight": 2,
	"destination":{
		"number": "12",
		"street": "Via Enrico Scuri",
		"town": "Bergamo",
		"province": "BG",
		"coordinates":{
			"lat": 45.690845, 
			"lng": 9.658827,
			"confidence": 9
		}
	}
},
{ 
	"id": "AAAJ",
	"volume": 5,
	"weight": 5,
	"destination":{
		"number": "6",
		"street": "Via N. Castellini",
		"town": "Bergamo",
		"province": "BG",
		"coordinates":{
			"lat": 45.707326, 
			"lng": 9.682426,
			"confidence": 9
		}
	}
},
{ 
	"id": "AAAK",
	"volume": 2,
	"weight": 4,
	"destination":{
		"number": "1",
		"street": "Via Cristoforo Colombo",
		"town": "Orio al Serio",
		"province": "BG",
		"coordinates":{
			"lat": 45.674526, 
			"lng": 9.689513,
			"confidence": 9
		}
	}
},
{ 
	"id": "AAAL",
	"volume": 3,
	"weight": 2,
	"destination":{
		"number": "22",
		"street": "Via S. Domenico Savio",
		"town": "Bergamo",
		"province": "BG",
		"coordinates":{
			"lat": 45.678640, 
			"lng": 9.678491,
			"confidence": 9
		}
	}
},
{ 
	"id": "AAAM",
	"volume": 5,
	"weight": 2,
	"destination":{
		"number": "8",
		"street": "Via Monte Ortigara",
		"town": "Bergamo",
		"province": "BG",
		"coordinates":{
			"lat": 45.699999, 
			"lng": 9.66947,
			"confidence": 9
		}
	}
},
]